     2.11           OBSERVATION DATA    M (MIXED)           RINEX VERSION / TYPE
teqc  2016Nov7      KASI/KOREA          20231219 11:48:02UTCPGM / RUN BY / DATE
Linux 2.4.20-8|Pentium IV|gcc|Linux|486/DX+                 COMMENT
  0.0000      (antenna height)                              COMMENT
 +36.39942706 (latitude)                                    COMMENT
+127.37448509 (longitude)                                   COMMENT
0116.854      (elevation)                                   COMMENT
BIT 2 OF LLI FLAGS DATA COLLECTED UNDER A/S CONDITION       COMMENT
23902M002 (COGO code)                                       COMMENT
DAEJ                                                        MARKER NAME
23902M002                                                   MARKER NUMBER
KASI GPS            KASI/KOREA                              OBSERVER / AGENCY
5412K48145          TRIMBLE NETR9       5.44                REC # / TYPE / VERS
4923363230          TRM59800.00     SCIS                    ANT # / TYPE
 -3120042.4825  4084614.6856  3764025.7815                  APPROX POSITION XYZ
        0.0000        0.0000        0.0000                  ANTENNA: DELTA H/E/N
     1     1                                                WAVELENGTH FACT L1/2
    10    L1    L2    L5    C1    P1    P2    C5    S1    S2# / TYPES OF OBSERV
          S5                                                # / TYPES OF OBSERV
    18                                                      LEAP SECONDS
 SNR is mapped to RINEX snr flag value [0-9]                COMMENT
  L1 & L2: min(max(int(snr_dBHz/6), 0), 9)                  COMMENT
  2023    12    19    11    30    0.0000000     GPS         TIME OF FIRST OBS
                                                            END OF HEADER
 23 12 19 11 30  0.0000000  0 21G03G21G22R14G07G02R24G14R17G30R23G08
                                R15G17E25E11E24E33E12E31E10
 126545514.673 5  98606921.18344  94498305.538 6  24080786.438
  24080801.180    24080803.105          31.500          26.700          40.100
 108421042.604 7  84484159.44146                  20631781.164
  20631785.734                          43.900          38.400
 127179218.820 5  99100621.16742                  24201376.273
  24201381.566                          33.300          16.300
 101763013.192 7  79149068.218 7                  19090464.539    19090463.906
  19090469.488                          46.600          46.900
 113451404.340 7  88403721.42247                  21589056.313
  21589062.910                          42.200          43.800
 108275840.479 7  84371042.42246                  20604157.633
  20604160.953                          45.000          40.500
 105046304.014 7  81702736.171 7                  19644088.773    19644088.156
  19644092.230                          46.200          46.000
 117030681.429 6  91192691.02144  87393037.632 7  22270168.859
  22270175.289    22270179.102          38.100          27.300          46.800
 109523443.060 7  85185169.438 7                  20466984.000    20466983.363
  20466988.289                          44.900          45.000
 115368506.529 7  89897555.56347  86151829.357 8  21953877.625
  21953885.379    21953885.988          42.200          42.600          48.700
 123821457.348 5                                  23147019.453    23147018.910
                                        33.400
 113605132.641 6  88523807.56745  84835315.893 8  21618271.305
  21618278.973    21618278.270          41.300          31.900          49.200
 112854172.940 7  87775365.543 7                  21119081.305    21119081.324
  21119086.383                          42.400          43.200
 123678992.970 5  96373224.08844                  23535311.414
  23535318.090                          32.500          28.700
 134539715.277 6                 100468031.763 7  25602044.594
                  25602050.105          40.800                          44.300
 123995434.822 7                  92594020.241 7  23595540.930
                  23595543.309          42.400                          43.400
 122658623.050 7                  91595818.187 8  23341131.172
                  23341135.102          47.200                          51.000
 140806038.705 5                 105147531.750 6  26794449.047
                  26794453.129          35.800                          40.400
 124002146.676 7                  92599053.532 8  23596810.344
                  23596812.289          43.100                          48.000
 132871123.196 7                  99222067.752 7  25284492.773
                  25284499.016          43.200                          45.400
 123476135.530 8                  92206303.545 8  23496700.734
                  23496705.844          48.200                          51.500
 23 12 19 11 30  1.0000000  0 21G03G21G22R14G07G02R24G14R17G30R23G08
                                R15G17E25E11E24E33E12E31E10
 126542120.437 5  98604276.34944  94495770.963 6  24080140.930
  24080155.277    24080157.215          32.000          25.600          40.000
 108422904.920 7  84485610.60446                  20632135.375
  20632140.125                          43.900          38.100
 127176326.695 5  99098367.58642                  24200827.281
  24200831.203                          33.300          15.600
 101763413.513 7  79149379.587 7                  19090539.313    19090539.020
  19090544.586                          46.600          47.100
 113453181.879 6  88405106.51747                  21589395.133
  21589401.191                          41.800          43.600
 108276625.999 7  84371654.51646                  20604307.242
  20604310.246                          45.000          40.500
 105047934.174 7  81704004.069 7                  19644393.438    19644393.055
  19644397.191                          46.100          46.200
 117027819.438 6  91190460.90144  87390900.415 7  22269624.742
  22269630.691    22269634.473          37.900          28.100          46.600
 109521538.118 7  85183687.822 7                  20466627.805    20466627.320
  20466632.336                          45.000          45.000
 115368603.909 7  89897631.44947  86151902.076 8  21953895.945
  21953904.031    21953904.441          42.100          42.400          48.400
 123825166.522 5                                  23147714.586    23147712.297
                                        33.100
 113607002.412 6  88525264.53245  84836712.144 8  21618627.445
  21618634.855    21618634.160          40.900          31.800          48.800
 112850839.312 7  87772772.726 7                  21118458.086    21118457.703
  21118462.512                          42.200          43.200
 123676877.900 5  96371575.98744                  23534908.852
  23534915.645                          32.500          29.100
 134537433.734 6                 100466328.012 7  25601610.758
                  25601615.949          40.800                          44.000
 123993324.476 7                  92592444.348 7  23595139.430
                  23595141.777          42.100                          43.600
 122658466.653 7                  91595701.403 8  23341101.445
                  23341105.367          47.200                          51.200
 140808718.678 6                 105149533.063 6  26794959.047
                  26794963.215          36.000                          40.400
 124002739.338 7                  92599496.104 7  23596922.820
                  23596925.086          43.300                          47.700
 132873126.018 7                  99223563.371 7  25284873.938
                  25284880.070          43.500                          45.300
 123475339.024 8                  92205708.750 8  23496549.344
                  23496554.445          48.300                          51.500
 23 12 19 11 30  2.0000000  0 21G03G21G22R14G07G02R24G14R17G30R23G08
                                R15G17E25E11E24E33E12E31E10
 126538726.270 5  98601631.58244  94493236.354 6  24079495.609
  24079509.258    24079511.129          32.000          27.500          40.200
 108424767.675 7  84487062.10346                  20632489.828
  20632494.453                          43.800          38.000
 127173434.539 5  99096113.91742                  24200275.492
  24200280.793                          33.200          16.300
 101763814.668 7  79149691.584 7                  19090615.328    19090614.348
  19090619.961                          46.400          47.100
 113454959.914 7  88406491.99647                  21589733.836
  21589739.461                          42.300          43.800
 108277412.019 7  84372266.99646                  20604456.602
  20604459.824                          44.900          40.600
 105049564.786 7  81705272.323 7                  19644698.820    19644698.023
  19644702.160                          46.400          45.600
 117024957.604 6  91188230.90244  87388763.354 7  22269079.977
  22269086.133    22269089.824          38.600          27.200          46.400
 109519633.698 7  85182206.610 7                  20466271.664    20466271.438
  20466276.539                          44.800          44.700
 115368701.909 6  89897707.81347  86151975.246 8  21953914.852
  21953922.602    21953923.176          41.700          42.600          48.500
 123828875.769 5                                  23148407.719    23148405.695
                                        33.100
 113608872.284 6  88526721.57545  84838108.490 8  21618982.523
  21618990.637    21618990.016          41.100          31.700          49.100
 112847506.093 7  87770180.207 7                  21117833.539    21117833.758
  21117838.641                          42.400          43.500
 123674762.966 5  96369927.99644                  23534506.156
  23534512.988                          32.900          28.600
 134535152.222 6                 100464624.301 7  25601176.547
                  25601182.051          40.900                          44.300
 123991214.454 7                  92590868.663 7  23594737.813
                  23594740.184          42.500                          43.400
 122658310.560 7                  91595584.833 8  23341071.758
                  23341075.633          47.400                          50.900
 140811398.746 5                 105151534.405 6  26795469.094
                  26795473.219          35.800                          40.600
 124003332.364 7                  92599938.946 8  23597035.656
                  23597037.977          43.600                          48.200
 132875129.064 7                  99225059.156 7  25285254.984
                  25285261.219          42.900                          45.500
 123474542.930 8                  92205114.258 8  23496397.836
                  23496402.813          48.200                          51.300
 23 12 19 11 30  3.0000000  0 21G03G21G22R14G07G02R24G14R17G30R23G08
                                R15G17E25E11E24E33E12E31E10
 126535332.070 5  98598986.77844  94490701.764 6  24078850.305
  24078863.414    24078865.332          31.900          25.300          40.200
 108426630.907 7  84488513.97446                  20632844.633
  20632849.047                          43.500          37.600
 127170542.392 5  99093860.28542                  24199725.977
  24199730.305                          33.200          16.900
 101764216.661 7  79150004.265 7                  19090690.555    19090689.754
  19090695.359                          46.400          46.900
 113456738.469 7  88407877.88347                  21590071.961
  21590078.023                          42.500          43.700
 108278198.537 7  84372879.87246                  20604606.555
  20604609.578                          44.700          40.600
 105051195.838 7  81706540.926 7                  19645003.391    19645003.242
  19645007.117                          46.400          45.100
 117022095.963 6  91186001.05644  87386626.411 7  22268534.969
  22268541.547    22268545.379          38.100          26.800          46.300
 109517729.785 7  85180725.793 7                  20465916.023    20465915.492
  20465920.730                          44.800          44.300
 115368800.516 7  89897784.64247  86152048.895 8  21953933.398
  21953941.266    21953942.055          42.000          42.500          48.500
 123832584.849 5                                  23149101.391    23149098.984
                                        33.700
 113610742.339 6  88528178.75745  84839504.950 8  21619338.438
  21619346.293    21619345.859          41.200          31.400          48.800
 112844173.299 7  87767588.053 7                  21117210.391    21117210.195
  21117215.066                          42.700          43.200
 123672648.144 5  96368280.07244                  23534103.539
  23534110.418                          33.000          29.300
 134532870.806 6                 100462920.646 7  25600742.492
                  25600747.852          41.000                          44.200
 123989104.758 7                  92589293.244 7  23594336.336
                  23594338.773          42.600                          43.700
 122658154.788 7                  91595468.507 8  23341042.008
                  23341046.051          47.400                          51.100
 140814078.914 5                 105153535.830 6  26795978.969
                  26795983.219          35.800                          40.600
 124003925.809 7                  92600382.107 8  23597148.578
                  23597150.906          43.300                          48.300
 132877132.367 7                  99226555.126 7  25285636.102
                  25285642.539          42.600                          45.300
 123473747.236 8                  92204520.075 8  23496246.453
                  23496251.414          48.200                          51.300
 23 12 19 11 30  4.0000000  0 21G03G21G22R14G07G02R24G14R17G30R23G08
                                R15G17E25E11E24E33E12E31E10
 126531937.832 5  98596341.92444  94488167.159 6  24078203.508
  24078217.211    24078219.371          31.300          26.800          40.400
 108428494.608 7  84489966.20946                  20633199.305
  20633203.770                          43.300          38.000
 127167650.269 5  99091606.69942                  24199175.891
  24199179.914                          33.200          16.300
 101764619.527 7  79150317.590 7                  19090766.242    19090765.570
  19090770.848                          46.600          46.800
 113458517.552 7  88409264.18047                  21590410.125
  21590416.531                          42.400          43.600
 108278985.570 7  84373493.14446                  20604756.211
  20604759.340                          44.800          40.500
 105052827.354 7  81707809.880 7                  19645309.141    19645308.109
  19645312.199                          46.100          45.600
 117019234.487 6  91183771.33044  87384489.590 7  22267990.820
  22267997.047    22268000.797          37.900          27.400          46.300
 109515826.445 7  85179245.414 7                  20465560.219    20465559.906
  20465565.105                          44.900          44.400
 115368899.792 6  89897862.00847  86152123.012 8  21953952.328
  21953960.313    21953960.742          41.600          42.500          48.500
 123836293.958 5                                  23149794.477    23149792.715
                                        33.400
 113612612.525 6  88529636.04745  84840901.526 8  21619694.461
  21619702.324    21619701.688          41.100          31.900          48.900
 112840840.958 7  87764996.226 7                  21116586.313    21116586.586
  21116591.461                          42.300          42.800
 123670533.496 5  96366632.30144                  23533700.602
  23533707.910                          32.400          29.300
 134530589.511 6                 100461217.067 7  25600308.297
                  25600313.672          41.100                          44.200
 123986995.369 7                  92587718.063 7  23593934.820
                  23593937.309          42.500                          43.600
 122657999.322 7                  91595352.424 8  23341012.594
                  23341016.516          47.400                          51.200
 140816759.169 6                 105155537.322 6  26796488.859
                  26796493.328          36.100                          40.500
 124004519.633 7                  92600825.558 8  23597261.648
                  23597263.875          43.600                          48.300
 132879135.929 7                  99228051.284 7  25286017.516
                  25286023.711          42.700                          45.300
 123472951.969 7                  92203926.212 8  23496095.023
                  23496100.090          47.800                          50.800
 23 12 19 11 30  5.0000000  0 21G03G21G22R14G07G02R24G14R17G30R23G08
                                R15G17E25E11E24E33E12E31E10
 126528543.699 5  98593697.18844  94485632.565 6  24077558.016
  24077571.184    24077573.648          31.900          27.100          40.400
 108430358.757 7  84491418.78846                  20633554.016
  20633558.598                          43.400          38.100
 127164758.127 5  99089353.09842                  24198625.211
  24198629.555                          33.500          16.300
 101765023.196 7  79150631.560 7                  19090842.367    19090841.059
  19090846.695                          46.700          46.900
 113460297.148 7  88410650.87847                  21590749.273
  21590755.145                          42.400          43.800
 108279773.125 7  84374106.82346                  20604906.273
  20604909.211                          44.700          40.700
 105054459.338 7  81709079.207 7                  19645614.039    19645613.414
  19645617.395                          45.900          45.500
 117016373.181 6  91181541.75944  87382352.924 7  22267445.969
  22267452.582    22267456.242          38.300          27.300          46.400
 109513923.611 7  85177765.446 7                  20465205.258    20465204.090
  20465209.508                          45.100          44.500
 115368999.689 7  89897939.84547  86152197.621 8  21953971.039
  21953979.273    21953979.727          42.200          42.400          48.500
 123840002.977 5                                  23150488.047    23150485.434
                                        33.100
 113614482.891 6  88531093.47445  84842298.218 8  21620050.438
  21620058.313    21620057.703          41.100          31.800          49.100
 112837509.051 7  87762404.778 7                  21115962.531    21115963.047
  21115967.859                          42.300          43.000
 123668418.971 5  96364984.62544                  23533298.109
  23533305.516                          33.400          29.100
 134528308.290 6                 100459513.574 7  25599874.039
                  25599879.680          41.400                          44.200
 123984886.303 7                  92586143.122 7  23593533.516
                  23593536.070          42.300                          43.600
 122657844.185 7                  91595236.564 8  23340983.133
                  23340986.980          47.000                          50.900
 140819439.536 5                 105157538.894 6  26796999.273
                  26797003.293          35.800                          40.800
 124005113.864 7                  92601269.299 7  23597374.773
                  23597377.039          43.800                          47.900
 132881139.708 7                  99229547.633 7  25286398.617
                  25286405.035          43.000                          45.100
 123472157.101 7                  92203332.646 8  23495943.891
                  23495948.820          47.900                          51.000
 23 12 19 11 30  6.0000000  0 21G03G21G22R14G07G02R24G14R17G30R23G08
                                R15G17E25E11E24E33E12E31E10
 126525149.501 5  98591052.39344  94483097.982 6  24076911.547
  24076925.246    24076927.645          32.400          26.900          40.500
 108432223.367 7  84492871.73946                  20633908.648
  20633913.281                          43.400          37.800
 127161866.053 5  99087099.47242                  24198075.125
  24198079.184                          33.400          17.400
 101765427.707 7  79150946.187 7                  19090917.828    19090916.844
  19090922.398                          46.700          47.000
 113462077.291 7  88412038.00347                  21591087.758
  21591093.859                          42.400          43.700
 108280561.179 7  84374720.89246                  20605055.961
  20605059.176                          44.600          40.700
 105056091.754 7  81710348.870 7                  19645918.938    19645918.637
  19645922.617                          46.100          45.500
 117013512.083 6  91179312.32244  87380216.383 7  22266902.047
  22266908.047    22266911.871          37.900          27.900          46.400
 109512021.285 7  85176285.858 7                  20464849.570    20464848.473
  20464853.996                          44.700          44.400
 115369100.223 7  89898018.18547  86152272.688 8  21953989.906
  21953998.555    21953998.871          42.000          42.500          48.400
 123843711.972 5                                  23151179.891    23151178.762
                                        33.100
 113616353.389 6  88532551.00745  84843695.019 8  21620405.992
  21620414.145    21620413.508          41.300          31.900          49.300
 112834177.635 7  87759813.646 7                  21115339.125    21115339.660
  21115344.258                          42.400          42.800
 123666304.504 5  96363336.99444                  23532897.508
  23532903.090                          33.300          28.900
 134526027.161 6                 100457810.127 7  25599440.031
                  25599445.496          40.700                          44.000
 123982777.559 7                  92584568.424 7  23593132.422
                  23593134.617          42.300                          43.400
 122657689.350 7                  91595120.940 8  23340953.609
                  23340957.398          47.400                          50.900
 140822120.021 6                 105159540.549 6  26797509.242
                  26797513.379          36.500                          40.200
 124005708.520 7                  92601713.355 8  23597488.055
                  23597490.082          43.500                          48.300
 132883143.771 7                  99231044.169 7  25286780.203
                  25286786.477          43.200                          45.100
 123471362.669 8                  92202739.402 8  23495792.633
                  23495797.688          48.200                          51.500
 23 12 19 11 30  7.0000000  0 21G03G21G22R14G07G02R24G14R17G30R23G08
                                R15G17E25E11E24E33E12E31E10
 126521755.367 5  98588407.63544  94480563.385 6  24076266.344
  24076279.125    24076281.555          31.900          26.100          40.500
 108434088.425 7  84494325.02546                  20634263.570
  20634268.395                          43.300          37.900
 127158973.931 5  99084845.89542                  24197524.297
  24197528.809                          33.500          16.300
 101765833.067 7  79151261.462 7                  19090994.156    19090993.098
  19090998.566                          46.400          47.100
 113463857.916 7  88413425.50047                  21591426.148
  21591432.582                          42.300          43.800
 108281349.731 7  84375335.34746                  20605206.352
  20605209.145                          44.600          40.900
 105057724.618 7  81711618.881 7                  19646224.031    19646223.824
  19646227.910                          46.100          46.000
 117010651.128 6  91177083.02144  87378079.973 7  22266357.148
  22266363.598    22266367.340          38.400          27.800          46.300
 109510119.502 7  85174806.680 7                  20464494.391    20464493.211
  20464498.566                          44.700          44.900
 115369201.374 7  89898096.99947  86152348.240 8  21954009.242
  21954017.801    21954018.191          42.000          42.700          48.900
 123847420.933 5                                  23151872.000    23151872.668
                                        33.800
 113618223.994 6  88534008.61345  84845091.896 8  21620762.516
  21620770.105    21620769.598          41.500          32.300          49.200
 112830846.599 7  87757222.854 7                  21114716.461    21114716.578
  21114720.910                          42.900          43.000
 123664190.260 5  96361689.53244                  23532494.586
  23532500.832                          33.200          29.300
 134523746.105 6                 100456106.763 7  25599006.016
                  25599011.586          41.300                          44.000
 123980669.151 7                  92582993.929 7  23592731.000
                  23592733.348          42.300                          43.600
 122657534.835 7                  91595005.558 8  23340924.188
                  23340928.066          47.000                          50.800
 140824800.589 6                 105161542.258 6  26798019.195
                  26798023.480          36.000                          40.500
 124006303.538 7                  92602157.688 8  23597601.297
                  23597603.352          43.300                          48.200
 132885148.061 7                  99232540.863 7  25287161.547
                  25287167.664          42.800                          45.300
 123470568.651 7                  92202146.457 8  23495641.594
                  23495646.426          47.900                          51.300
 23 12 19 11 30  8.0000000  0 21G03G21G22R14G07G02R24G14R17G30R23G08
                                R15G17E25E11E24E33E12E31E10
 126518361.076 5  98585762.75844  94478028.804 6  24075619.703
  24075633.352    24075635.789          32.200          26.400          40.600
 108435953.937 7  84495778.67046                  20634618.289
  20634623.367                          43.300          38.200
 127156081.848 5  99082592.34142                  24196974.023
  24196978.375                          33.000          16.900
 101766239.279 7  79151577.405 7                  19091069.906    19091069.230
  19091074.730                          46.400          47.400
 113465639.048 7  88414813.39847                  21591765.070
  21591771.621                          42.300          43.900
 108282138.776 7  84375950.19746                  20605356.117
  20605359.340                          44.900          40.800
 105059357.974 7  81712889.267 7                  19646529.664    19646529.410
  19646533.461                          46.000          46.100
 117007790.343 6  91174853.83644  87375943.678 7  22265812.977
  22265819.266    22265823.020          38.200          27.600          46.600
 109508218.227 7  85173327.919 7                  20464139.891    20464137.766
  20464143.203                          45.200          44.700
 115369303.153 6  89898176.31047  86152424.239 8  21954028.906
  21954037.098    21954037.535          41.600          42.600          48.800
 123851129.830 5                                  23152566.422    23152565.996
                                        32.800
 113620094.736 6  88535466.33345  84846488.893 8  21621118.344
  21621126.094    21621125.496          41.100          31.900          49.500
 112827515.935 7  87754632.324 7                  21114093.016    21114093.348
  21114097.496                          42.600          43.000
 123662076.043 5  96360042.10344                  23532091.633
  23532098.414                          32.800          29.900
 134521465.148 6                 100454403.442 7  25598571.852
                  25598577.531          41.000                          44.100
 123978561.019 6                  92581419.695 7  23592329.758
                  23592332.336          41.900                          43.800
 122657380.597 7                  91594890.371 8  23340894.875
                  23340898.645          47.000                          50.800
 140827481.232 6                 105163544.062 6  26798529.430
                  26798533.563          36.200                          40.400
 124006898.941 7                  92602602.302 8  23597714.711
                  23597716.563          43.000                          48.200
 132887152.555 7                  99234037.727 7  25287542.703
                  25287549.238          43.600                          45.500
 123469775.013 7                  92201553.811 8  23495490.617
                  23495495.523          47.800                          51.800
 23 12 19 11 30  9.0000000  0 21G03G21G22R14G07G02R24G14R17G30R23G08
                                R15G17E25E11E24E33E12E31E10
 126514966.928 5  98583117.99144  94475494.228 6  24074973.969
  24074987.516    24074989.801          32.300          26.900          40.900
 108437819.940 7  84497232.70146                  20634973.766
  20634978.449                          43.700          38.100
 127153189.782 5  99080338.78342                  24196424.266
  24196428.203                          33.800          16.300
 101766646.377 7  79151894.044 7                  19091145.859    19091145.738
  19091151.242                          46.100          47.600
 113467420.768 7  88416201.74447                  21592103.867
  21592110.551                          42.100          43.900
 108282928.395 7  84376565.47946                  20605506.797
  20605509.711                          45.000          40.900
 105060991.858 7  81714160.054 7                  19646836.195    19646834.965
  19646839.020                          45.800          46.000
 117004929.810 6  91172624.86044  87373807.541 7  22265268.688
  22265274.965    22265278.582          38.300          27.500          46.300
 109506317.547 7  85171849.612 7                  20463783.656    20463782.859
  20463788.121                          45.300          44.700
 115369405.614 6  89898256.15147  86152500.751 8  21954047.984
  21954056.559    21954056.961          41.400          42.600          48.400
 123854838.753 5                                  23153259.617    23153258.813
                                        33.000
 113621965.693 6  88536924.22445  84847886.019 8  21621474.672
  21621482.188    21621481.664          40.800          31.700          49.600
 112824185.741 7  87752042.167 7                  21113469.742    21113470.078
  21113474.277                          42.700          43.000
 123659962.070 5  96358394.84544                  23531690.414
  23531696.145                          33.100          29.100
 134519184.301 6                 100452700.217 7  25598137.563
                  25598143.496          41.500                          44.200
 123976453.252 6                  92579845.710 7  23591928.734
                  23591931.230          41.900                          43.800
 122657226.715 7                  91594775.473 8  23340865.539
                  23340869.504          47.300                          51.000
 140830162.018 6                 105165545.947 6  26799039.422
                  26799043.719          36.100                          40.200
 124007494.763 7                  92603047.248 8  23597827.891
                  23597830.004          43.300                          48.500
 132889157.343 7                  99235534.816 7  25287924.484
                  25287930.691          43.000                          45.100
 123468981.834 8                  92200961.506 8  23495339.664
                  23495344.512          48.000                          51.600
 23 12 19 11 30 10.0000000  0 21G03G21G22R14G07G02R24G14R17G30R23G08
                                R15G17E25E11E24E33E12E31E10
 126511572.827 5  98580473.26844  94472959.653 6  24074328.781
  24074341.383    24074343.902          31.900          27.000          40.500
 108439686.414 7  84498687.09846                  20635329.141
  20635333.691                          43.100          37.800
 127150297.751 5  99078085.24042                  24195874.500
  24195878.102                          33.300          16.900
 101767054.315 7  79152211.324 7                  19091222.563    19091222.316
  19091227.660                          46.400          47.500
 113469202.981 6  88417590.49147                  21592443.391
  21592449.781                          41.900          43.600
 108283718.512 7  84377181.15746                  20605657.203
  20605659.949                          44.700          40.700
 105062626.182 7  81715431.185 7                  19647141.055    19647140.531
  19647144.633                          45.800          46.100
 117002069.430 6  91170395.97844  87371671.544 7  22264724.297
  22264730.520    22264734.246          38.500          27.000          46.300
 109504417.418 7  85170371.738 7                  20463428.953    20463427.523
  20463433.113                          44.900          44.500
 115369508.726 6  89898336.49547  86152577.740 8  21954067.984
  21954076.234    21954076.621          41.500          42.600          48.500
 123858547.672 5                                  23153954.727    23153952.176
                                        33.300
 113623836.779 6  88538382.21945  84849283.256 8  21621830.734
  21621838.230    21621837.645          41.100          32.100          49.700
 112820855.973 7  87749452.367 7                  21112846.586    21112846.766
  21112851.242                          42.300          43.100
 123657848.160 5  96356747.65444                  23531287.688
  23531293.887                          33.600          29.300
 134516903.583 6                 100450997.073 7  25597703.969
                  25597709.570          41.600                          44.600
 123974345.783 6                  92578271.973 7  23591527.844
                  23591530.152          41.800                          43.700
 122657073.187 7                  91594660.820 8  23340836.367
                  23340840.191          47.000                          50.700
 140832842.943 5                 105167547.925 6  26799549.414
                  26799553.664          35.500                          40.200
 124008091.010 7                  92603492.490 8  23597941.531
                  23597943.543          43.100                          48.600
 132891162.407 7                  99237032.085 7  25288305.859
                  25288312.125          42.900                          45.000
 123468189.073 8                  92200369.502 8  23495188.891
                  23495193.660          48.000                          51.300
 23 12 19 11 30 11.0000000  0 21G03G21G22R14G07G02R24G14R17G30R23G08
                                R15G17E25E11E24E33E12E31E10
 126508178.649 5  98577828.47844  94470425.115 6  24073682.266
  24073695.543    24073697.863          32.400          27.400          40.600
 108441553.356 7  84500141.85346                  20635684.000
  20635688.914                          43.200          38.000
 127147405.693 5  99075831.71042                  24195323.820
  24195327.680                          33.800          17.400
 101767463.051 7  79152529.236 7                  19091298.813    19091299.008
  19091304.434                          46.300          47.000
 113470985.724 6  88418979.63647                  21592782.789
  21592789.000                          41.800          43.500
 108284509.136 7  84377797.22946                  20605807.609
  20605810.359                          45.000          40.600
 105064260.916 7  81716702.664 7                  19647446.750    19647446.398
  19647450.309                          45.900          46.100
 116999209.252 6  91168167.26544  87369535.690 7  22264180.531
  22264186.285    22264189.988          38.700          27.600          46.400
 109502517.788 7  85168894.259 7                  20463073.859    20463072.434
  20463077.965                          44.900          44.800
 115369612.426 6  89898417.30447  86152655.198 8  21954088.453
  21954095.953    21954096.352          41.700          42.600          48.800
 123862256.504 5                                  23154646.844    23154645.703
                                        33.600
 113625707.982 6  88539840.28745  84850680.599 8  21622186.203
  21622194.160    21622193.664          41.400          31.600          49.700
 112817526.694 7  87746862.917 7                  21112223.445    21112224.070
  21112228.121                          42.600          43.100
 123655734.443 5  96355100.59844                  23530885.570
  23530891.813                          33.700          29.700
 134514622.934 6                 100449293.986 7  25597269.711
                  25597275.598          41.900                          44.300
 123972238.662 6                  92576698.465 7  23591126.750
                  23591129.234          41.600                          43.700
 122656919.946 7                  91594546.394 8  23340807.172
                  23340811.082          47.000                          50.900
 140835523.943 5                 105169549.973 6  26800059.992
                  26800064.031          35.700                          40.200
 124008687.624 7                  92603938.009 8  23598054.789
                  23598057.082          42.900                          48.200
 132893167.672 7                  99238529.536 7  25288687.273
                  25288693.738          43.300                          45.200
 123467396.722 7                  92199777.816 8  23495038.031
                  23495042.922          47.900                          51.400
 23 12 19 11 30 12.0000000  0 21G03G21G22R14G07G02R24G14R17G30R23G08
                                R15G17E25E11E24E33E12E31E10
 126504784.506 5  98575183.73144  94467890.532 6  24073036.719
  24073049.590    24073052.039          32.800          27.300          40.900
 108443420.701 7  84501596.92746                  20636039.273
  20636044.063                          43.400          38.000
 127144513.670 5  99073578.17142                  24194772.352
  24194777.289                          33.800          16.900
 101767872.585 7  79152847.753 7                  19091375.930    19091375.645
  19091381.152                          46.300          47.400
 113472768.979 6  88420369.18847                  21593122.133
  21593128.336                          41.900          43.400
 108285300.237 7  84378413.66746                  20605958.086
  20605960.980                          44.900          40.500
 105065896.089 7  81717974.457 7                  19647752.758    19647752.320
  19647756.102                          46.100          46.100
 116996349.184 6  91165938.64044  87367399.941 7  22263635.828
  22263642.086    22263645.719          38.300          27.700          46.200
 109500618.666 7  85167417.158 7                  20462719.203    20462717.480
  20462723.063                          45.100          44.600
 115369716.791 7  89898498.63647  86152733.113 8  21954108.031
  21954115.855    21954116.156          42.400          42.600          48.400
 123865965.288 5                                  23155340.617    23155339.230
                                        33.300
 113627579.343 6  88541298.50645  84852078.035 8  21622542.180
  21622550.387    21622549.746          40.900          32.200          49.500
 112814197.805 7  87744273.795 7                  21111600.438    21111600.922
  21111605.203                          42.800          43.200
 123653620.790 5  96353453.60145                  23530483.625
  23530489.539                          34.000          30.000
 134512342.342 6                 100447590.944 7  25596835.492
                  25596841.551          41.800                          44.600
 123970131.815 7                  92575125.176 7  23590726.008
                  23590728.254          42.100                          43.900
 122656766.994 7                  91594432.178 8  23340778.016
                  23340781.965          47.000                          50.900
 140838205.018 5                 105171552.068 6  26800569.922
                  26800574.117          35.700                          40.400
 124009284.619 7                  92604383.826 8  23598168.461
                  23598170.590          43.000                          48.100
 132895173.189 7                  99240027.167 7  25289069.031
                  25289075.293          43.100                          44.900
 123466604.765 7                  92199186.426 8  23494887.398
                  23494892.180          47.800                          51.500
 23 12 19 11 30 13.0000000  0 21G03G21G22R14G07G02R24G14R17G30R23G08
                                R15G17E25E11E24E33E12E31E10
 126501390.299 5  98572538.91144  94465355.970 6  24072391.805
  24072403.543    24072405.969          32.900          28.300          40.900
 108445288.478 7  84503052.34446                  20636394.922
  20636399.598                          43.400          38.300
 127141621.604 5  99071324.65342                  24194222.438
  24194227.121                          33.500          16.900
 101768282.913 7  79153166.900 7                  19091453.273    19091452.527
  19091458.203                          46.100          46.600
 113474552.705 6  88421759.10647                  21593461.859
  21593467.707                          41.600          43.600
 108286091.815 7  84379030.49146                  20606108.391
  20606111.617                          45.100          40.900
 105067531.702 7  81719246.613 7                  19648058.188    19648058.059
  19648062.016                          45.800          45.700
 116993489.308 6  91163710.16044  87365264.312 7  22263091.555
  22263097.738    22263101.555          38.200          27.700          46.200
 109498720.034 7  85165940.446 7                  20462364.648    20462362.777
  20462368.207                          45.200          44.200
 115369821.735 7  89898580.40947  86152811.479 8  21954127.625
  21954135.730    21954136.039          42.000          42.800          48.300
 123869674.104 5                                  23156033.766    23156032.430
                                        32.900
 113629450.828 6  88542756.79845  84853475.573 8  21622898.938
  21622906.531    21622905.875          41.000          31.500          49.300
 112810869.354 7  87741684.986 7                  21110978.164    21110978.199
  21110982.324                          42.800          43.000
 123651507.219 5  96351806.67844                  23530080.898
  23530087.352                          34.100          28.400
 134510061.826 6                 100445887.985 7  25596401.695
                  25596407.609          41.400                          44.700
 123968025.284 7                  92573552.094 7  23590325.016
                  23590327.281          42.100                          43.700
 122656614.330 7                  91594318.169 8  23340749.094
                  23340752.914          46.800                          50.900
 140840886.168 5                 105173554.250 6  26801079.930
                  26801084.379          35.600                          40.200
 124009881.979 7                  92604829.909 8  23598282.289
                  23598284.348          42.900                          48.100
 132897178.922 7                  99241524.952 7  25289450.781
                  25289457.121          42.800                          44.900
 123465813.196 7                  92198595.315 8  23494736.578
                  23494741.664          47.900                          51.600
 23 12 19 11 30 14.0000000  0 21G03G21G22R14G07G02R24G14R17G30R23G08
                                R15G17E25E11E24E33E12E31E10
 126497996.062 5  98569894.06144  94462821.394 6  24071744.555
  24071757.660    24071760.086          33.100          26.800          40.700
 108447156.731 7  84504508.12746                  20636750.250
  20636755.055                          43.400          37.900
 127138729.523 5  99069071.06042                  24193671.797
  24193677.020                          34.000          16.300
 101768694.077 7  79153486.696 7                  19091530.992    19091529.758
  19091535.301                          46.000          46.800
 113476336.952 6  88423149.42847                  21593801.273
  21593807.102                          41.700          43.800
 108286883.899 7  84379647.69646                  20606258.883
  20606262.418                          44.600          40.600
 105069167.807 7  81720519.130 7                  19648364.422    19648364.074
  19648367.930                          46.100          46.100
 116990629.581 6  91161481.81044  87363128.812 7  22262547.891
  22262553.422    22262557.398          38.400          28.000          46.100
 109496821.955 7  85164464.151 7                  20462009.367    20462008.070
  20462013.641                          45.000          44.400
 115369927.306 6  89898662.66847  86152890.324 8  21954148.266
  21954155.801    21954156.199          41.800          42.600          48.800
 123873382.815 5                                  23156727.813    23156725.211
                                        33.100
 113631322.436 6  88544215.20345  84854873.217 8  21623255.039
  21623262.684    21623262.125          40.900          31.100          49.100
 112807541.297 7  87739096.498 7                  21110354.625    21110355.059
  21110359.586                          42.700          43.400
 123649393.759 5  96350159.82244                  23529678.906
  23529685.313                          34.100          29.000
 134507781.387 6                 100444185.061 7  25595967.758
                  25595973.715          40.900                          44.500
 123965919.047 7                  92571979.259 7  23589924.531
                  23589926.566          42.000                          43.600
 122656461.979 7                  91594204.400 8  23340720.000
                  23340723.922          47.200                          50.800
 140843567.414 5                 105175556.467 6  26801589.945
                  26801594.828          35.900                          40.200
 124010479.750 7                  92605276.290 8  23598396.305
                  23598398.039          42.700                          48.100
 132899184.872 7                  99243022.923 7  25289832.523
                  25289838.719          42.400                          45.100
 123465022.029 7                  92198004.517 8  23494586.203
                  23494590.910          47.800                          51.200
 23 12 19 11 30 15.0000000  0 21G03G21G22R14G07G02R24G14R17G30R23G08
                                R15G17E25E11E24E33E12E31E10
 126494601.965 5  98567249.34444  94460286.807 6  24071099.352
  24071111.699    24071114.160          32.200          26.700          40.500
 108449025.433 7  84505964.25946                  20637106.055
  20637110.754                          43.500          37.900
 127135837.504 5  99066817.54342                  24193122.148
  24193126.730                          33.500          16.300
 101769106.081 7  79153807.145 7                  19091607.953    19091606.984
  19091612.621                          46.000          46.900
 113478121.728 6  88424540.15747                  21594141.125
  21594146.922                          41.600          43.600
 108287676.513 7  84380265.31846                  20606409.820
  20606413.332                          44.800          40.700
 105070804.349 7  81721791.997 7                  19648670.898    19648670.074
  19648674.000                          45.900          46.000
 116987770.049 6  91159253.60944  87360993.442 7  22262002.898
  22262009.418    22262013.227          38.800          26.800          46.400
 109494924.427 7  85162988.304 7                  20461654.844    20461653.703
  20461659.051                          44.700          43.900
 115370033.524 7  89898745.43347  86152969.646 8  21954168.086
  21954176.145    21954176.309          42.200          42.500          48.700
 123877091.431 5                                  23157421.484    23157418.457
                                        33.700
 113633194.211 6  88545673.72545  84856270.959 8  21623611.078
  21623618.719    21623618.250          41.400          32.300          49.100
 112804213.638 7  87736508.330 7                  21109732.258    21109732.285
  21109736.820                          42.500          43.300
 123647280.471 5  96348513.11644                  23529277.852
  23529283.320                          34.300          29.400
 134505501.036 6                 100442482.196 7  25595534.031
                  25595539.781          40.600                          44.400
 123963813.139 6                  92570406.663 7  23589523.555
                  23589526.004          41.900                          43.600
 122656309.935 7                  91594090.870 8  23340691.242
                  23340694.867          47.400                          51.000
 140846248.758 6                 105177558.756 6  26802100.563
                  26802104.660          36.000                          40.000
 124011077.908 7                  92605722.972 8  23598509.867
                  23598511.922          42.600                          48.200
 132901191.098 7                  99244521.053 7  25290214.195
                  25290220.516          42.600                          44.700
 123464231.292 7                  92197414.018 8  23494435.625
                  23494440.602          47.600                          51.300
 23 12 19 11 30 16.0000000  0 21G03G21G22R14G07G02R24G14R17G30R23G08
                                R15G17E25E11E24E33E12E31E10
 126491207.849 5  98564604.61244  94457752.248 6  24070453.555
  24070465.781    24070468.238          32.800          27.400          40.400
 108450894.685 7  84507420.81646                  20637461.617
  20637466.430                          43.600          38.400
 127132945.522 5  99064564.05842                  24192572.148
  24192576.656                          33.400          16.900
 101769518.995 7  79154128.291 7                  19091684.836    19091684.465
  19091690.059                          46.100          47.200
 113479907.107 7  88425931.35747                  21594480.102
  21594486.566                          42.000          43.600
 108288469.686 7  84380883.37246                  20606560.727
  20606564.055                          44.700          40.800
 105072441.393 7  81723065.250 7                  19648976.398    19648976.480
  19648980.227                          46.200          46.100
 116984910.764 6  91157025.60044  87358858.258 7  22261459.094
  22261465.168    22261469.172          38.600          26.700          46.300
 109493027.517 7  85161512.939 7                  20461299.984    20461299.156
  20461304.422                          44.900          44.400
 115370140.427 7  89898828.73347  86153049.480 8  21954188.641
  21954196.473    21954196.613          42.300          42.600          48.600
 123880800.145 5                                  23158113.711    23158111.758
                                        34.100
 113635066.156 6  88547132.38745  84857668.849 8  21623967.125
  21623975.047    21623974.488          41.500          32.300          49.200
 112800886.498 7  87733920.556 7                  21109108.844    21109109.441
  21109114.082                          42.500          43.200
 123645167.392 5  96346866.56644                  23528875.156
  23528881.281                          34.600          29.700
 134503220.869 6                 100440779.476 7  25595099.477
                  25595105.801          40.900                          44.300
 123961707.601 7                  92568834.353 7  23589122.883
                  23589125.289          42.000                          43.900
 122656158.267 7                  91593977.601 8  23340662.156
                  23340666.074          47.500                          51.100
 140848930.287 5                 105179561.200 6  26802610.813
                  26802615.227          35.900                          40.300
 124011676.539 7                  92606169.990 7  23598623.867
                  23598625.793          42.700                          47.800
 132903197.642 7                  99246019.439 7  25290595.922
                  25290602.203          42.400                          45.000
 123463441.021 7                  92196823.889 8  23494285.156
                  23494290.137          47.300                          51.200
 23 12 19 11 30 17.0000000  0 21G03G21G22R14G07G02R24G14R17G30R23G08
                                R15G17E25E11E24E33E12E31E10
 126487813.812 5  98561959.93644  94455217.770 6  24069807.992
  24069820.027    24069822.414          32.900          28.500          40.800
 108452764.406 7  84508877.74646                  20637817.906
  20637822.316                          43.900          37.900
 127130053.603 5  99062310.59842                  24192022.023
  24192026.156                          33.600          16.900
 101769932.760 7  79154450.115 7                  19091763.156    19091762.297
  19091767.746                          46.100          47.500
 113481692.999 7  88427322.95947                  21594820.125
  21594826.406                          42.200          43.600
 108289263.387 7  84381501.83646                  20606712.078
  20606715.020                          45.000          40.700
 105074078.892 7  81724338.861 7                  19649283.188    19649282.594
  19649286.484                          46.100          46.200
 116982051.666 6  91154797.72444  87356723.226 7  22260915.625
  22260921.094    22260925.109          38.700          27.600          46.200
 109491131.144 7  85160037.971 7                  20460945.953    20460944.617
  20460949.973                          44.500          44.900
 115370248.001 7  89898912.55747  86153129.801 8  21954209.148
  21954216.980    21954217.184          42.600          42.500          48.500
 123884508.753 5                                  23158808.750    23158805.195
                                        34.400
 113636938.281 6  88548591.19245  84859066.864 8  21624323.398
  21624331.211    21624330.820          41.000          31.600          49.400
 112797559.805 7  87731333.140 7                  21108486.398    21108487.098
  21108491.563                          42.600          43.000
 123643054.432 5  96345220.10644                  23528474.148
  23528479.227                          35.200          29.700
 134500940.799 6                 100439076.816 7  25594665.977
                  25594671.824          41.100                          44.400
 123959602.381 6                  92567262.293 7  23588722.414
                  23588724.539          41.600                          43.800
 122656006.948 7                  91593864.612 8  23340633.461
                  23340637.293          47.800                          51.000
 140851611.920 6                 105181563.740 6  26803121.391
                  26803125.371          36.200                          40.200
 124012275.564 7                  92606617.327 7  23598737.773
                  23598739.758          42.900                          47.900
 132905204.417 7                  99247518.026 7  25290977.969
                  25290984.211          42.600                          45.100
 123462651.193 7                  92196234.088 8  23494134.859
                  23494139.750          47.500                          51.100
 23 12 19 11 30 18.0000000  0 21G03G21G22R14G07G02R24G14R17G30R23G08
                                R15G17E25E11E24E33E12E31E10
 126484419.657 5  98559315.16844  94452683.228 6  24069161.352
  24069174.258    24069176.535          33.000          26.900          40.700
 108454634.545 7  84510334.99646                  20638173.141
  20638178.164                          43.300          38.200
 127127161.603 5  99060057.13142                  24191471.211
  24191475.863                          33.700          17.800
 101770347.336 7  79154772.563 7                  19091840.820    19091839.773
  19091845.422                          46.000          47.100
 113483479.362 7  88428714.93347                  21595160.008
  21595166.281                          42.000          43.400
 108290057.564 7  84382120.68046                  20606863.055
  20606866.277                          44.900          40.900
 105075716.827 7  81725612.808 7                  19649588.891    19649588.801
  19649592.793                          46.300          45.700
 116979192.724 6  91152569.98744  87354588.294 7  22260371.703
  22260377.203    22260381.027          39.100          26.900          46.400
 109489235.231 7  85158563.390 7                  20460591.617    20460590.516
  20460595.699                          44.700          44.800
 115370356.149 7  89898996.83347  86153210.563 8  21954230.063
  21954237.633    21954237.578          42.600          42.400          48.400
 123888217.363 5                                  23159501.086    23159498.348
                                        33.400
 113638810.522 6  88550050.06645  84860464.955 8  21624679.781
  21624687.559    21624687.234          41.000          31.800          49.500
 112794233.529 7  87728746.037 7                  21107864.813    21107864.574
  21107869.105                          42.300          42.600
 123640941.583 5  96343573.73044                  23528072.188
  23528076.855                          35.100          29.900
 134498660.767 6                 100437374.206 7  25594232.297
                  25594238.082          41.500                          44.200
 123957497.487 6                  92565690.435 7  23588321.617
                  23588324.176          41.800                          43.800
 122655855.898 7                  91593751.810 8  23340604.766
                  23340608.551          47.700                          51.400
 140854293.612 5                 105183566.292 6  26803631.781
                  26803635.766          35.800                          40.400
 124012874.979 7                  92607064.927 7  23598851.953
                  23598853.922          42.700                          47.600
 132907211.425 7                  99249016.758 7  25291359.875
                  25291366.063          42.500                          45.500
 123461861.735 7                  92195644.553 8  23493984.656
                  23493989.543          47.700                          50.900
 23 12 19 11 30 19.0000000  0 21G03G21G22R14G07G02R24G14R17G30R23G08
                                R15G17E25E11E24E33E12E31E10
 126481025.534 5  98556670.41844  94450148.713 6  24068515.500
  24068528.316    24068530.504          32.500          27.700          40.900
 108456505.146 7  84511792.60446                  20638529.352
  20638534.094                          43.500          38.300
 127124269.690 5  99057803.62142                  24190921.633
  24190925.645                          33.800          16.900
 101770762.732 7  79155095.652 7                  19091918.148    19091917.520
  19091923.367                          46.400          47.000
 113485266.285 6  88430107.34047                  21595500.039
  21595506.258                          41.900          43.400
 108290852.227 7  84382739.89646                  20607014.750
  20607017.391                          45.400          40.600
